
    {
        "name" : "Atlas Field Series",
        "date_start" : "2017-10-28T04:00:00.000Z",
        "date_end" : "2017-10-28T04:00:00.000Z",
        "cost" : "",
        "venue" : "Atlas Field",
        "city" : "Lockhart",
        "state" : "TX",
        "abbrev": "",
        "country" : "USA",
        "url" : "directathletics.com",
        "lat" : 29.884944,
        "lng" : -97.67
    }

    {
        "name" : "iRun4Good",
        "date_start" : "2017-10-28T04:00:00.000Z",
        "date_end" : "2017-10-28T04:00:00.000Z",
        "cost" : "",
        "venue" : "Freestone Park",
        "city" : "Gilbert",
        "state" : "AZ",
        "abbrev": "",
        "country" : "USA",
        "url" : "directathletics.com",
        "lat" : 33.352826,
        "lng" : -111.789027
    }

    {
        "name" : "Throw For The Road 2017 Series",
        "date_start" : "2017-10-28T04:00:00.000Z",
        "date_end" : "2017-10-28T04:00:00.000Z",
        "cost" : "",
        "venue" : "",
        "city" : "Troy",
        "state" : "MO",
        "abbrev": "",
        "country" : "USA",
        "url" : "directathletics.com",
        "lat" : 31.808768,
        "lng" : -85.969951
    }

    {
        "name" : "Trick or Treat Run London",
        "date_start" : "2017-10-28T04:00:00.000Z",
        "date_end" : "2017-10-28T04:00:00.000Z",
        "cost" : "",
        "venue" : "",
        "city" : "London",
        "state" : "London",
        "abbrev": "",
        "country" : "GBR",
        "url" : "directathletics.com",
        "lat" : 51.507351,
        "lng" : -0.127758
    }

    {
        "name" : "ATB Churchyard Pole Vault Meet #6",
        "date_start" : "2017-10-28T04:00:00.000Z",
        "date_end" : "2017-10-29T04:00:00.000Z",
        "cost" : "",
        "venue" : "",
        "city" : "Boulder",
        "state" : "CO",
        "abbrev": "",
        "country" : "USA",
        "url" : "directathletics.com",
        "lat" : 40.014986,
        "lng" : -105.270546
    }

    {
        "name" : "2017 USATF-FL 3000m/1500m RW",
        "date_start" : "2017-10-29T04:00:00.000Z",
        "date_end" : "2017-10-29T04:00:00.000Z",
        "cost" : "",
        "venue" : "",
        "city" : "Plantation",
        "state" : "FL",
        "abbrev": "",
        "country" : "USA",
        "url" : "directathletics.com",
        "lat" : 26.127586,
        "lng" : -80.233104
    }

    {
        "name" : "Texas Throwers Winter Series",
        "date_start" : "2018-02-10T05:00:00.000Z",
        "date_end" : "2018-02-10T05:00:00.000Z",
        "cost" : "",
        "venue" : "",
        "city" : "Lockhart",
        "state" : "TX",
        "abbrev": "",
        "country" : "USA",
        "url" : "directathletics.com",
        "lat" : 29.884944,
        "lng" : -97.67
    }

    {
        "name" : "Draycote Water Winter 10K Series - Race 5",
        "date_start" : "2018-02-11T05:00:00.000Z",
        "date_end" : "2018-02-11T05:00:00.000Z",
        "cost" : "",
        "venue" : "",
        "city" : "Rugby",
        "state" : "Warwikshire",
        "abbrev": "",
        "country" : "GBR",
        "url" : "directathletics.com",
        "lat" : 48.368888,
        "lng" : -99.996246
    }

    {
        "name" : "USATF Indoor Championships",
        "date_start" : "2018-02-16T05:00:00.000Z",
        "date_end" : "2018-02-18T05:00:00.000Z",
        "cost" : "",
        "venue" : "",
        "city" : "Albuquerque",
        "state" : "NM",
        "abbrev": "",
        "country" : "USA",
        "url" : "directathletics.com",
        "lat" : 35.085334,
        "lng" : -106.605553
    }

    {
        "name" : "2018 USATF Minnesota All Ages Indoor Track & Field Meet #5",
        "date_start" : "2018-02-18T05:00:00.000Z",
        "date_end" : "2018-02-18T05:00:00.000Z",
        "cost" : "",
        "venue" : "",
        "city" : "Saint Paul",
        "state" : "MN",
        "abbrev": "",
        "country" : "USA",
        "url" : "directathletics.com",
        "lat" : 44.953703,
        "lng" : -93.089958
    }

    {
        "name" : "DMV Indoor Winter Throws Series",
        "date_start" : "2018-02-23T05:00:00.000Z",
        "date_end" : "2018-02-23T05:00:00.000Z",
        "cost" : "",
        "venue" : "",
        "city" : "Landover",
        "state" : "MD",
        "abbrev": "",
        "country" : "USA",
        "url" : "directathletics.com",
        "lat" : 38.934,
        "lng" : -76.89664
    }

    {
        "name" : "Sculptor Charter Schools A Max Brewer Bridge 5K GLOW Run",
        "date_start" : "2018-02-24T05:00:00.000Z",
        "date_end" : "2018-02-24T05:00:00.000Z",
        "cost" : "",
        "venue" : "",
        "city" : "Titusville",
        "state" : "FL",
        "abbrev": "",
        "country" : "USA",
        "url" : "directathletics.com",
        "lat" : 28.612219,
        "lng" : -80.807554
    }

    {
        "name" : "NYRR Night at the Races 4",
        "date_start" : "2018-03-01T05:00:00.000Z",
        "date_end" : "2018-03-01T05:00:00.000Z",
        "cost" : "",
        "venue" : "",
        "city" : "New York",
        "state" : "NY",
        "abbrev": "",
        "country" : "USA",
        "url" : "directathletics.com",
        "lat" : 40.7127753,
        "lng" : -74.0059728
    }

    {
        "name" : "DMV Indoor Winter Throws Series Finale",
        "date_start" : "2018-03-02T05:00:00.000Z",
        "date_end" : "2018-03-02T05:00:00.000Z",
        "cost" : "",
        "venue" : "",
        "city" : "Landover",
        "state" : "MD",
        "abbrev": "",
        "country" : "USA",
        "url" : "directathletics.com",
        "lat" : 38.934,
        "lng" : -76.89664
    }

    {
        "name" : "Take Stock 5K/10K Run",
        "date_start" : "2018-03-04T05:00:00.000Z",
        "date_end" : "2018-03-04T05:00:00.000Z",
        "cost" : "",
        "venue" : "",
        "city" : "Bradenton",
        "state" : "FL",
        "abbrev": "",
        "country" : "USA",
        "url" : "directathletics.com",
        "lat" : 27.498928,
        "lng" : -82.574819
    }

    {
        "name" : "Cancer Research UK Manchester Winter Run",
        "date_start" : "2018-03-11T05:00:00.000Z",
        "date_end" : "2018-03-11T05:00:00.000Z",
        "cost" : "",
        "venue" : "",
        "city" : "Manchester",
        "state" : "Manchester",
        "abbrev": "",
        "country" : "GBR",
        "url" : "directathletics.com",
        "lat" : 53.480759,
        "lng" : -2.242631
    }

    {
        "name" : "Draycote Water Winter 10K Series - Race 6",
        "date_start" : "2018-03-11T05:00:00.000Z",
        "date_end" : "2018-03-11T05:00:00.000Z",
        "cost" : "",
        "venue" : "",
        "city" : "Rugby",
        "state" : "Rugby",
        "abbrev": "",
        "country" : "GBR",
        "url" : "directathletics.com",
        "lat" : 48.368888,
        "lng" : -99.996246
    }

    {
        "name" : "8th Annual Trailblazer Invitational",
        "date_start" : "2018-03-24T04:00:00.000Z",
        "date_end" : "2018-03-24T04:00:00.000Z",
        "cost" : "",
        "venue" : "",
        "city" : "Tampa",
        "state" : "FL",
        "abbrev": "",
        "country" : "USA",
        "url" : "directathletics.com",
        "lat" : 27.950575,
        "lng" : -82.457178
    }

    {
        "name" : "Delaware Classic",
        "date_start" : "2018-03-24T04:00:00.000Z",
        "date_end" : "2018-03-24T04:00:00.000Z",
        "cost" : "",
        "venue" : "",
        "city" : "Newark",
        "state" : "DE",
        "abbrev": "",
        "country" : "USA",
        "url" : "directathletics.com",
        "lat" : 40.689531,
        "lng" : -74.174462
    }

    {
        "name" : "Mornington Chasers Regents Park 10k Series",
        "date_start" : "2018-04-02T04:00:00.000Z",
        "date_end" : "2018-04-02T04:00:00.000Z",
        "cost" : "",
        "venue" : "",
        "city" : "London",
        "state" : "London",
        "abbrev": "",
        "country" : "GBR",
        "url" : "directathletics.com",
        "lat" : 51.507351,
        "lng" : -0.127758
    }

    {
        "name" : "Claremont Classic",
        "date_start" : "2018-04-08T04:00:00.000Z",
        "date_end" : "2018-04-08T04:00:00.000Z",
        "cost" : "",
        "venue" : "",
        "city" : "Claremont",
        "state" : "CA",
        "abbrev": "",
        "country" : "USA",
        "url" : "directathletics.com",
        "lat" : 34.096676,
        "lng" : -117.719779
    }

    {
        "name" : "American Masters Track & Field Championship",
        "date_start" : "2018-04-14T04:00:00.000Z",
        "date_end" : "2018-04-14T04:00:00.000Z",
        "cost" : "",
        "venue" : "",
        "city" : "Durham",
        "state" : "NC",
        "abbrev": "",
        "country" : "USA",
        "url" : "directathletics.com",
        "lat" : 35.994033,
        "lng" : -78.898619
    }

    {
        "name" : "Brighton Marathon - Kent, Surrey and Sussex Air Ambulance",
        "date_start" : "2018-04-15T04:00:00.000Z",
        "date_end" : "2018-04-15T04:00:00.000Z",
        "cost" : "",
        "venue" : "",
        "city" : "Brighton",
        "state" : "Brighton",
        "abbrev": "",
        "country" : "GBR",
        "url" : "directathletics.com",
        "lat" : 43.122272,
        "lng" : -77.573405
    }

    {
        "name" : "UAlbany Spring Classic",
        "date_start" : "2018-04-19T04:00:00.000Z",
        "date_end" : "2018-04-21T04:00:00.000Z",
        "cost" : "",
        "venue" : "",
        "city" : "Albany",
        "state" : "NY",
        "abbrev": "",
        "country" : "USA",
        "url" : "directathletics.com",
        "lat" : 42.652579,
        "lng" : -73.756232
    }

    {
        "name" : "UD Open",
        "date_start" : "2018-04-29T04:00:00.000Z",
        "date_end" : "2018-04-29T04:00:00.000Z",
        "cost" : "",
        "venue" : "",
        "city" : "Newark",
        "state" : "DE",
        "abbrev": "",
        "country" : "USA",
        "url" : "directathletics.com",
        "lat" : 40.689531,
        "lng" : -74.174462
    }

    {
        "name" : "Dawn 2 Dusk 2 Dawn Track Ultras",
        "date_start" : "2018-05-12T04:00:00.000Z",
        "date_end" : "2018-05-13T04:00:00.000Z",
        "cost" : "",
        "venue" : "",
        "city" : "Sharon Hill",
        "state" : "PA",
        "abbrev": "",
        "country" : "USA",
        "url" : "directathletics.com",
        "lat" : 39.906502,
        "lng" : -75.271573
    }

    {
        "name" : "Ryan Gilmartin",
        "date_start" : "2018-05-20T04:00:00.000Z",
        "date_end" : "2018-05-20T04:00:00.000Z",
        "cost" : "",
        "venue" : "",
        "city" : "Elmhurst",
        "state" : "IL",
        "abbrev": "",
        "country" : "USA",
        "url" : "directathletics.com",
        "lat" : 41.899474,
        "lng" : -87.940342
    }

    {
        "name" : "Alabama Association Alumni Indoor Track Meet",
        "date_start" : "2017-12-30T05:00:00.000Z",
        "date_end" : "2017-12-30T05:00:00.000Z",
        "cost" : "",
        "venue" : "",
        "city" : "Birmingham",
        "state" : "AL",
        "abbrev": "",
        "country" : "USA",
        "url" : "directathletics.com",
        "lat" : 52.48624299999999,
        "lng" : -1.890401
    }

    {
        "name" : "Expo PV Explosions IX",
        "date_start" : "2017-12-30T05:00:00.000Z",
        "date_end" : "2017-12-30T05:00:00.000Z",
        "cost" : "",
        "venue" : "",
        "city" : "Belton",
        "state" : "TX",
        "abbrev": "",
        "country" : "USA",
        "url" : "directathletics.com",
        "lat" : 31.056013,
        "lng" : -97.464453
    }

    {
        "name" : "NYRR Armory Open Sprint Night",
        "date_start" : "2017-12-30T05:00:00.000Z",
        "date_end" : "2017-12-30T05:00:00.000Z",
        "cost" : "",
        "venue" : "",
        "city" : "New York",
        "state" : "NY",
        "abbrev": "",
        "country" : "USA",
        "url" : "directathletics.com",
        "lat" : 43.16103,
        "lng" : -77.610922
    }

    {
        "name" : "Upstate NY Holiday Classic",
        "abbrev": "",
        "date_start" : "2017-12-30T05:00:00.000Z",
        "date_end" : "2017-12-30T05:00:00.000Z",
        "cost" : "",
        "venue" : "",
        "city" : "Rochester",
        "state" : "NY",
        "abbrev": "",
        "country" : "USA",
        "url" : "directathletics.com",
        "lat" : 43.16103,
        "lng" : -77.6109219
    }

    {
        "name" : "USATF Indoor 5,000m Race Walk Championships",
        "date_start" : "2017-12-30T05:00:00.000Z",
        "date_end" : "2017-12-30T05:00:00.000Z",
        "cost" : "",
        "venue" : "",
        "city" : "Rochester",
        "state" : "NY",
        "abbrev": "",
        "country" : "USA",
        "url" : "directathletics.com",
        "lat" : 43.16103,
        "lng" : -77.6109219
    }

    {
        "name" : "2017 Bell Athletics Pole Vault Series",
        "date_start" : "2017-12-31T05:00:00.000Z",
        "date_end" : "2017-12-31T05:00:00.000Z",
        "cost" : "",
        "venue" : "",
        "city" : "Jonesboro",
        "state" : "AR",
        "abbrev": "",
        "country" : "USA",
        "url" : "directathletics.com",
        "lat" : 35.842297,
        "lng" : -90.704279
    }

    {
        "name" : "Throw For The Road 2017 Series",
        "date_start" : "2017-12-31T05:00:00.000Z",
        "date_end" : "2017-12-31T05:00:00.000Z",
        "cost" : "",
        "venue" : "",
        "city" : "Troy",
        "state" : "MO",
        "abbrev": "",
        "country" : "USA",
        "url" : "directathletics.com",
        "lat" : 31.808768,
        "lng" : -85.969951
    }

    {
        "name" : "DMV Indoor Winter Throws Series",
        "date_start" : "2018-01-05T05:00:00.000Z",
        "date_end" : "2018-01-05T05:00:00.000Z",
        "cost" : "",
        "venue" : "",
        "city" : "Landover",
        "state" : "MD",
        "abbrev": "",
        "country" : "USA",
        "url" : "directathletics.com",
        "lat" : 38.934,
        "lng" : -76.89664
    }

    {
        "name" : "2018 USATF Minnesota All Ages Indoor Track & Field Meet #2",
        "date_start" : "2018-01-07T05:00:00.000Z",
        "date_end" : "2018-01-07T05:00:00.000Z",
        "cost" : "",
        "venue" : "",
        "city" : "Saint Paul",
        "state" : "MN",
        "abbrev": "",
        "country" : "USA",
        "url" : "directathletics.com",
        "lat" : 44.953703,
        "lng" : -93.089958
    }

    {
        "name" : "Mornington Chasers Regents Park 10k Series",
        "date_start" : "2018-01-07T05:00:00.000Z",
        "date_end" : "2018-01-07T05:00:00.000Z",
        "cost" : "",
        "venue" : "",
        "city" : "London",
        "state" : "London",
        "abbrev": "",
        "country" : "GBR",
        "url" : "directathletics.com",
        "lat" : 51.507351,
        "lng" : -0.127758
    }

    {
        "name" : "NYRR Night at the Races 2",
        "date_start" : "2018-01-11T05:00:00.000Z",
        "date_end" : "2018-01-11T05:00:00.000Z",
        "cost" : "",
        "venue" : "",
        "city" : "New York",
        "state" : "NY",
        "abbrev": "",
        "country" : "USA",
        "url" : "directathletics.com",
        "lat" : 40.7127753,
        "lng" : -74.0059728
    }

    {
        "name" : "Great Dane Classic",
        "date_start" : "2018-01-13T05:00:00.000Z",
        "date_end" : "2018-01-13T05:00:00.000Z",
        "cost" : "",
        "venue" : "",
        "city" : "Staten Island",
        "state" : "NY",
        "abbrev": "",
        "country" : "USA",
        "url" : "directathletics.com",
        "lat" : 40.579532,
        "lng" : -74.150201
    }

    {
        "name" : "Thin Mint",
        "date_start" : "2018-01-13T05:00:00.000Z",
        "date_end" : "2018-01-13T05:00:00.000Z",
        "cost" : "",
        "venue" : "",
        "city" : "Bakersfield",
        "state" : "CA",
        "abbrev": "",
        "country" : "USA",
        "url" : "directathletics.com",
        "lat" : 35.373292,
        "lng" : -119.018712
    }

    {
        "name" : "DMV Indoor Winter Throws Series",
        "date_start" : "2018-01-19T05:00:00.000Z",
        "date_end" : "2018-01-19T05:00:00.000Z",
        "cost" : "",
        "venue" : "",
        "city" : "Landover",
        "state" : "MD",
        "abbrev": "",
        "country" : "USA",
        "url" : "directathletics.com",
        "lat" : 38.934,
        "lng" : -76.89664
    }

    {
        "name" : "DMV Indoor Winter Throws Series",
        "date_start" : "2018-01-19T05:00:00.000Z",
        "date_end" : "2018-01-19T05:00:00.000Z",
        "cost" : "",
        "venue" : "",
        "city" : "Landover",
        "state" : "MD",
        "abbrev": "",
        "country" : "USA",
        "url" : "directathletics.com",
        "lat" : 38.934,
        "lng" : -76.89664
    }

    {
        "name" : "New Balance Games",
        "date_start" : "2018-01-19T05:00:00.000Z",
        "date_end" : "2018-01-20T05:00:00.000Z",
        "cost" : "",
        "venue" : "",
        "city" : "New York",
        "state" : "NY",
        "abbrev": "",
        "country" : "USA",
        "url" : "directathletics.com",
        "lat" : 40.7127753,
        "lng" : -74.0059728
    }

    {
        "name" : "Pacific Association USATF 1 Mile Grand Prix",
        "date_start" : "2018-01-20T05:00:00.000Z",
        "date_end" : "2018-01-20T05:00:00.000Z",
        "cost" : "",
        "venue" : "",
        "city" : "Berkeley",
        "state" : "CA",
        "abbrev": "",
        "country" : "USA",
        "url" : "directathletics.com",
        "lat" : 37.871899,
        "lng" : -122.25854
    }

    {
        "name" : "2018 USATF Minnesota All Ages Indoor Track & Field Meet #3",
        "date_start" : "2018-01-21T05:00:00.000Z",
        "date_end" : "2018-01-21T05:00:00.000Z",
        "cost" : "",
        "venue" : "",
        "city" : "Saint Paul",
        "state" : "MN",
        "abbrev": "",
        "country" : "USA",
        "url" : "directathletics.com",
        "lat" : 44.953703,
        "lng" : -93.089958
    }

    {
        "name" : "NYRR Night at the Races 3",
        "date_start" : "2018-01-25T05:00:00.000Z",
        "date_end" : "2018-01-25T05:00:00.000Z",
        "cost" : "",
        "venue" : "",
        "city" : "New York",
        "state" : "NY",
        "abbrev": "",
        "country" : "USA",
        "url" : "directathletics.com",
        "lat" : 40.7127753,
        "lng" : -74.0059728
    }

    {
        "name" : "18th Dr. Sanders Invitational/Columbia Challenge",
        "date_start" : "2018-01-26T05:00:00.000Z",
        "date_end" : "2018-01-26T05:00:00.000Z",
        "cost" : "",
        "venue" : "",
        "city" : "New York",
        "state" : "NY",
        "abbrev": "",
        "country" : "USA",
        "url" : "directathletics.com",
        "lat" : 40.7127753,
        "lng" : -74.0059728
    }

    {
        "name" : "STC Bil Butterworth Masters/Open USATF Missouri Valley Association Championships and Youth Indoor",
        "date_start" : "2018-01-27T05:00:00.000Z",
        "date_end" : "2018-01-27T05:00:00.000Z",
        "cost" : "",
        "venue" : "",
        "city" : "Wichita",
        "state" : "KS",
        "abbrev": "",
        "country" : "USA",
        "url" : "directathletics.com",
        "lat" : 37.687176,
        "lng" : -97.330053
    }

    {
        "name" : "Texas Throwers Club Winter Series",
        "date_start" : "2018-01-27T05:00:00.000Z",
        "date_end" : "2018-01-27T05:00:00.000Z",
        "cost" : "",
        "venue" : "",
        "city" : "Lockhart",
        "state" : "TX",
        "abbrev": "",
        "country" : "USA",
        "url" : "directathletics.com",
        "lat" : 29.884944,
        "lng" : -97.67
    }

    {
        "name" : "DMV Indoor Winter Throws Series",
        "date_start" : "2018-02-02T05:00:00.000Z",
        "date_end" : "2018-02-02T05:00:00.000Z",
        "cost" : "",
        "venue" : "",
        "city" : "Landover",
        "state" : "MD",
        "abbrev": "",
        "country" : "USA",
        "url" : "directathletics.com",
        "lat" : 38.934,
        "lng" : -76.89664
    }

    {
        "name" : "NYRR Millrose Games",
        "date_start" : "2018-02-03T05:00:00.000Z",
        "date_end" : "2018-02-03T05:00:00.000Z",
        "cost" : "",
        "venue" : "",
        "city" : "New York",
        "state" : "NY",
        "abbrev": "",
        "country" : "USA",
        "url" : "directathletics.com",
        "lat" : 40.7127753,
        "lng" : -74.0059728
    }

    {
        "name" : "2018 USATF Minnesota All Ages Indoor Track & Field Meet #4",
        "date_start" : "2018-02-04T05:00:00.000Z",
        "date_end" : "2018-02-04T05:00:00.000Z",
        "cost" : "",
        "venue" : "",
        "city" : "Saint Paul",
        "state" : "MN",
        "abbrev": "",
        "country" : "USA",
        "url" : "directathletics.com",
        "lat" : 44.953703,
        "lng" : -93.089958
    }

    {
        "name" : "TCS Amsterdam Marathon",
        "date_start" : "2017-10-15T04:00:00.000Z",
        "date_end" : "2017-10-15T04:00:00.000Z",
        "cost" : "",
        "venue" : "",
        "city" : "Amsterdam",
        "state" : "",
        "abbrev": "",
        "country" : "NED",
        "url" : "iaaf.org",
        "lat" : 52.370216,
        "lng" : 4.895168
    }

    {
        "name" : "Rock 'n' Roll Lisbon Half Marathon Santander Totta RTP",
        "date_start" : "2017-10-15T04:00:00.000Z",
        "date_end" : "2017-10-15T04:00:00.000Z",
        "cost" : "",
        "venue" : "",
        "city" : "Lisbon",
        "state" : "",
        "abbrev": "",
        "country" : "POR",
        "url" : "iaaf.org",
        "lat" : 38.722252,
        "lng" : -9.139337
    }

    {
        "name" : "Rock 'n' Roll Lisbon Marathon EDP",
        "date_start" : "2017-10-15T04:00:00.000Z",
        "date_end" : "2017-10-15T04:00:00.000Z",
        "cost" : "",
        "venue" : "",
        "city" : "Lisbon",
        "state" : "",
        "abbrev": "",
        "country" : "POR",
        "url" : "iaaf.org",
        "lat" : 38.722252,
        "lng" : -9.139337
    }

    {
        "name" : "Scotiabank Toronto Waterfront Marathon",
        "date_start" : "2017-10-22T04:00:00.000Z",
        "date_end" : "2017-10-22T04:00:00.000Z",
        "cost" : "",
        "venue" : "",
        "city" : "Toronto",
        "state" : "",
        "abbrev": "",
        "country" : "CAN",
        "url" : "iaaf.org",
        "lat" : 43.653226,
        "lng" : -79.383184
    }

    {
        "name" : "Venice Marathon",
        "date_start" : "2017-10-22T04:00:00.000Z",
        "date_end" : "2017-10-22T04:00:00.000Z",
        "cost" : "",
        "venue" : "",
        "city" : "Venice",
        "state" : "",
        "abbrev": "",
        "country" : "ITA",
        "url" : "iaaf.org",
        "lat" : 45.440847,
        "lng" : 12.315515
    }

    {
        "name" : "Medio Maratón Valencia Trinidad Alfonso EDP",
        "date_start" : "2017-10-22T04:00:00.000Z",
        "date_end" : "2017-10-22T04:00:00.000Z",
        "cost" : "",
        "venue" : "",
        "city" : "Valencia",
        "state" : "",
        "abbrev": "",
        "country" : "ESP",
        "url" : "iaaf.org",
        "lat" : 28.521772,
        "lng" : -81.463458
    }

    {
        "name" : "Marseille-Cassis 20KM",
        "date_start" : "2017-10-29T04:00:00.000Z",
        "date_end" : "2017-10-29T04:00:00.000Z",
        "cost" : "",
        "venue" : "",
        "city" : "Marseille",
        "state" : "",
        "abbrev": "",
        "country" : "FRA",
        "url" : "iaaf.org",
        "lat" : 43.296482,
        "lng" : 5.36978
    }

    {
        "name" : "Mainova Frankfurt Marathon",
        "date_start" : "2017-10-29T04:00:00.000Z",
        "date_end" : "2017-10-29T04:00:00.000Z",
        "cost" : "",
        "venue" : "",
        "city" : "Frankfurt",
        "state" : "",
        "abbrev": "",
        "country" : "GER",
        "url" : "iaaf.org",
        "lat" : 50.110922,
        "lng" : 8.682127
    }

    {
        "name" : "Volkswagen Ljubljana Marathon",
        "date_start" : "2017-10-29T04:00:00.000Z",
        "date_end" : "2017-10-29T04:00:00.000Z",
        "cost" : "",
        "venue" : "",
        "city" : "Ljubljana",
        "state" : "",
        "abbrev": "",
        "country" : "SLO",
        "url" : "iaaf.org",
        "lat" : 46.056947,
        "lng" : 14.505751
    }

    {
        "name" : "Marathon des Alpes-Maritimes Nice-Cannes",
        "date_start" : "2017-11-05T04:00:00.000Z",
        "date_end" : "2017-11-05T04:00:00.000Z",
        "cost" : "",
        "venue" : "",
        "city" : "Nice",
        "state" : "",
        "abbrev": "",
        "country" : "FRA",
        "url" : "iaaf.org",
        "lat" : 43.710173,
        "lng" : 7.261953
    }

    {
        "name" : "TCS New York CIty Marathon",
        "date_start" : "2017-11-05T04:00:00.000Z",
        "date_end" : "2017-11-05T04:00:00.000Z",
        "cost" : "",
        "venue" : "",
        "city" : "New York City",
        "state" : "",
        "abbrev": "",
        "country" : "USA",
        "url" : "iaaf.org",
        "lat" : 40.7127753,
        "lng" : -74.0059728
    }

    {
        "name" : "Hangzhou Marathon",
        "date_start" : "2017-11-05T04:00:00.000Z",
        "date_end" : "2017-11-05T04:00:00.000Z",
        "cost" : "",
        "venue" : "",
        "city" : "Hangzhou",
        "state" : "",
        "abbrev": "",
        "country" : "CHN",
        "url" : "iaaf.org",
        "lat" : 30.274084,
        "lng" : 120.15507
    }

    {
        "name" : "Saitama International Marathon",
        "date_start" : "2017-11-12T05:00:00.000Z",
        "date_end" : "2017-11-12T05:00:00.000Z",
        "cost" : "",
        "venue" : "",
        "city" : "Saitama",
        "state" : "",
        "abbrev": "",
        "country" : "JPN",
        "url" : "iaaf.org",
        "lat" : 35.861729,
        "lng" : 139.645482
    }

    {
        "name" : "BLOM BANK Beirut Marathon",
        "date_start" : "2017-11-12T05:00:00.000Z",
        "date_end" : "2017-11-12T05:00:00.000Z",
        "cost" : "",
        "venue" : "",
        "city" : "Beyrouth",
        "state" : "",
        "abbrev": "",
        "country" : "LBN",
        "url" : "iaaf.org",
        "lat" : 33.893791,
        "lng" : 35.501777
    }

    {
        "name" : "Shanghai International Marathon",
        "date_start" : "2017-11-12T05:00:00.000Z",
        "date_end" : "2017-11-12T05:00:00.000Z",
        "cost" : "",
        "venue" : "",
        "city" : "Shanghai",
        "state" : "",
        "abbrev": "",
        "country" : "CHN",
        "url" : "iaaf.org",
        "lat" : 31.23039,
        "lng" : 121.473702
    }

    {
        "name" : "Vodafone Istanbul Marathon",
        "date_start" : "2017-11-12T05:00:00.000Z",
        "date_end" : "2017-11-12T05:00:00.000Z",
        "cost" : "",
        "venue" : "",
        "city" : "Istanbul",
        "state" : "",
        "abbrev": "",
        "country" : "TUR",
        "url" : "iaaf.org",
        "lat" : 41.008238,
        "lng" : 28.978359
    }

    {
        "name" : "Cross de Atapuerca",
        "date_start" : "2017-11-12T05:00:00.000Z",
        "date_end" : "2017-11-12T05:00:00.000Z",
        "cost" : "",
        "venue" : "",
        "city" : "Burgos",
        "state" : "",
        "abbrev": "",
        "country" : "ESP",
        "url" : "iaaf.org",
        "lat" : 42.343993,
        "lng" : -3.696906
    }

    {
        "name" : "Semi-Marathon de Boulogne Billancourt Christian Granger",
        "date_start" : "2017-11-19T05:00:00.000Z",
        "date_end" : "2017-11-19T05:00:00.000Z",
        "cost" : "",
        "venue" : "",
        "city" : "Boulogne-Billancourt",
        "state" : "",
        "abbrev": "",
        "country" : "FRA",
        "url" : "iaaf.org",
        "lat" : 48.839695,
        "lng" : 2.239912
    }

    {
        "name" : "Maratón Valencia Trinidad Alfonso EDP",
        "date_start" : "2017-11-19T05:00:00.000Z",
        "date_end" : "2017-11-19T05:00:00.000Z",
        "cost" : "",
        "venue" : "",
        "city" : "Valencia",
        "state" : "",
        "abbrev": "",
        "country" : "ESP",
        "url" : "iaaf.org",
        "lat" : 28.521772,
        "lng" : -81.463458
    }

    {
        "name" : "Airtel Delhi Half Marathon",
        "date_start" : "2017-11-19T05:00:00.000Z",
        "date_end" : "2017-11-19T05:00:00.000Z",
        "cost" : "",
        "venue" : "",
        "city" : "New Delhi",
        "state" : "",
        "abbrev": "",
        "country" : "IND",
        "url" : "iaaf.org",
        "lat" : 28.613939,
        "lng" : 77.209021
    }

    {
        "name" : "Firenze Marathon",
        "date_start" : "2017-11-26T05:00:00.000Z",
        "date_end" : "2017-11-26T05:00:00.000Z",
        "cost" : "",
        "venue" : "",
        "city" : "Florence",
        "state" : "",
        "abbrev": "",
        "country" : "ITA",
        "url" : "iaaf.org",
        "lat" : 43.76956,
        "lng" : 11.255814
    }

    {
        "name" : "The 71st Fukuoka International Open Marathon Championships",
        "date_start" : "2017-12-03T05:00:00.000Z",
        "date_end" : "2017-12-03T05:00:00.000Z",
        "cost" : "",
        "venue" : "",
        "city" : "Fukuoka",
        "state" : "",
        "abbrev": "",
        "country" : "JPN",
        "url" : "iaaf.org",
        "lat" : 33.590355,
        "lng" : 130.401716
    }

    {
        "name" : "Marathon du Gabon",
        "date_start" : "2017-12-03T05:00:00.000Z",
        "date_end" : "2017-12-03T05:00:00.000Z",
        "cost" : "",
        "venue" : "",
        "city" : "Libreville",
        "state" : "",
        "abbrev": "",
        "country" : "GAB",
        "url" : "iaaf.org",
        "lat" : 0.416198,
        "lng" : 9.467268
    }

    {
        "name" : "Standard Chartered Singapore Marathon",
        "date_start" : "2017-12-03T05:00:00.000Z",
        "date_end" : "2017-12-03T05:00:00.000Z",
        "cost" : "",
        "venue" : "",
        "city" : "Singapore",
        "state" : "",
        "abbrev": "",
        "country" : "SGP",
        "url" : "iaaf.org",
        "lat" : 1.352083,
        "lng" : 103.819836
    }

    {
        "name" : "Guangzhou Marathon",
        "date_start" : "2017-12-10T05:00:00.000Z",
        "date_end" : "2017-12-10T05:00:00.000Z",
        "cost" : "",
        "venue" : "",
        "city" : "Guangzhou",
        "state" : "",
        "abbrev": "",
        "country" : "CHN",
        "url" : "iaaf.org",
        "lat" : 23.12911,
        "lng" : 113.264385
    }

    {
        "name" : "Shenzhen Marathon",
        "date_start" : "2017-12-17T05:00:00.000Z",
        "date_end" : "2017-12-17T05:00:00.000Z",
        "cost" : "",
        "venue" : "",
        "city" : "Shenzhen",
        "state" : "",
        "abbrev": "",
        "country" : "CHN",
        "url" : "iaaf.org",
        "lat" : 22.543096,
        "lng" : 114.057865
    }

    {
        "name" : "San Silvestre Vallecana",
        "date_start" : "2017-12-31T05:00:00.000Z",
        "date_end" : "2017-12-31T05:00:00.000Z",
        "cost" : "",
        "venue" : "",
        "city" : "Madrid",
        "state" : "",
        "abbrev": "",
        "country" : "ESP",
        "url" : "iaaf.org",
        "lat" : 40.416775,
        "lng" : -3.70379
    }

    {
        "name" : "IAAF Antrim International Cross Country",
        "date_start" : "2018-01-06T05:00:00.000Z",
        "date_end" : "2018-01-06T05:00:00.000Z",
        "cost" : "",
        "venue" : "",
        "city" : "Antrim",
        "state" : "",
        "abbrev": "",
        "country" : "GBR",
        "url" : "iaaf.org",
        "lat" : 43.030856,
        "lng" : -71.938919
    }

    {
        "name" : "61° Campaccio-International Cross Country",
        "date_start" : "2018-01-06T05:00:00.000Z",
        "date_end" : "2018-01-06T05:00:00.000Z",
        "cost" : "",
        "venue" : "",
        "city" : "Legnano",
        "state" : "",
        "abbrev": "",
        "country" : "ITA",
        "url" : "iaaf.org",
        "lat" : 45.590063,
        "lng" : 8.903825
    }

    {
        "name" : "Cross Internacional Juan Muguerza",
        "date_start" : "2018-01-14T05:00:00.000Z",
        "date_end" : "2018-01-14T05:00:00.000Z",
        "cost" : "",
        "venue" : "",
        "city" : "Elgoibar",
        "state" : "",
        "abbrev": "",
        "country" : "ESP",
        "url" : "iaaf.org",
        "lat" : 43.215711,
        "lng" : -2.41282
    }

    {
        "name" : "Indoor Meeting - Karlsruhe",
        "date_start" : "2018-02-03T05:00:00.000Z",
        "date_end" : "2018-02-03T05:00:00.000Z",
        "cost" : "",
        "venue" : "Messehalle Stadium",
        "city" : "Karlsruhe",
        "state" : "",
        "abbrev": "",
        "country" : "GER",
        "url" : "iaaf.org",
        "lat" : 49.00689,
        "lng" : 8.403653
    }

    {
        "name" : "13. International PSD Bank Meeting Dusseldorf 2018",
        "date_start" : "2018-02-06T05:00:00.000Z",
        "date_end" : "2018-02-06T05:00:00.000Z",
        "cost" : "",
        "venue" : "",
        "city" : "Dusseldorf",
        "state" : "",
        "abbrev": "",
        "country" : "GER",
        "url" : "iaaf.org",
        "lat" : 51.227741,
        "lng" : 6.773456
    }

    {
        "name" : "Madrid Indoor Meeting",
        "date_start" : "2018-02-08T05:00:00.000Z",
        "date_end" : "2018-02-08T05:00:00.000Z",
        "cost" : "",
        "venue" : "",
        "city" : "Mardrid",
        "state" : "",
        "abbrev": "",
        "country" : "ESP",
        "url" : "iaaf.org",
        "lat" : 40.416775,
        "lng" : -3.70379
    }

    {
        "name" : "New Balance Indoor Grand Prix",
        "date_start" : "2018-02-10T05:00:00.000Z",
        "date_end" : "2018-02-10T05:00:00.000Z",
        "cost" : "",
        "venue" : "Reggie Lewis Stadium ",
        "city" : "Boston",
        "state" : "MA",
        "abbrev": "",
        "country" : "USA",
        "url" : "iaaf.org",
        "lat" : 42.360083,
        "lng" : -71.05888
    }

    {
        "name" : "Cinque Mulini",
        "date_start" : "2018-02-11T05:00:00.000Z",
        "date_end" : "2018-02-11T05:00:00.000Z",
        "cost" : "",
        "venue" : "",
        "city" : "Cinque Mulini",
        "state" : "",
        "abbrev": "",
        "country" : "ITA",
        "url" : "iaaf.org",
        "lat" : 45.5861,
        "lng" : 8.942593
    }

    {
        "name" : "Copernicus Cup",
        "date_start" : "2018-02-15T05:00:00.000Z",
        "date_end" : "2018-02-15T05:00:00.000Z",
        "cost" : "",
        "venue" : "Arena (Torun)",
        "city" : "Torun",
        "state" : "",
        "abbrev": "",
        "country" : "POL",
        "url" : "iaaf.org",
        "lat" : 53.01379,
        "lng" : 18.598444
    }

    {
        "name" : "Müller Indoor Grand Prix Glasgow",
        "date_start" : "2018-02-25T05:00:00.000Z",
        "date_end" : "2018-02-25T05:00:00.000Z",
        "cost" : "",
        "venue" : "Emirates Arena",
        "city" : "Glasgow",
        "state" : "",
        "abbrev": "",
        "country" : "GBR",
        "url" : "iaaf.org",
        "lat" : 55.864237,
        "lng" : -4.251806
    }

    {
        "name" : "IAAF World Indoor Championships",
        "date_start" : "2018-03-01T05:00:00.000Z",
        "date_end" : "2018-03-04T05:00:00.000Z",
        "cost" : "",
        "venue" : "",
        "city" : "Birmingham",
        "state" : "",
        "abbrev": "",
        "country" : "GBR",
        "url" : "iaaf.org",
        "lat" : 52.486243,
        "lng" : -1.890401
    }

    {
        "name" : "IAAF World Half Marathon Championships Valencia 2018",
        "date_start" : "2018-03-24T04:00:00.000Z",
        "date_end" : "2018-03-24T04:00:00.000Z",
        "cost" : "",
        "venue" : "",
        "city" : "Valencia",
        "state" : "",
        "abbrev": "",
        "country" : "ESP",
        "url" : "iaaf.org",
        "lat" : 28.521772,
        "lng" : -81.463458
    }

    {
        "name" : "Commonwealth Games",
        "date_start" : "2018-04-15T04:00:00.000Z",
        "date_end" : "2018-04-08T04:00:00.000Z",
        "cost" : "",
        "venue" : "Hampen Park",
        "city" : "Glasgow",
        "state" : "",
        "abbrev": "",
        "country" : "AUS",
        "url" : "iaaf.org",
        "lat" : -41.169162,
        "lng" : 146.354391
    }

    {
        "name" : "31st Multistars - Trofeo Zerneri Acciai",
        "date_start" : "2018-04-28T04:00:00.000Z",
        "date_end" : "2018-04-27T04:00:00.000Z",
        "cost" : "",
        "venue" : "Stadio Ridolfi",
        "city" : "Firenze",
        "state" : "",
        "abbrev": "",
        "country" : "ITA",
        "url" : "iaaf.org",
        "lat" : 43.76956,
        "lng" : 11.255814
    }

    {
        "name" : "Doha Diamond League",
        "date_start" : "2018-05-04T04:00:00.000Z",
        "date_end" : "2018-05-04T04:00:00.000Z",
        "cost" : "",
        "venue" : "",
        "city" : "Doha",
        "state" : "",
        "abbrev": "",
        "country" : "QAT",
        "url" : "iaaf.org",
        "lat" : 25.285447,
        "lng" : 51.53104
    }

    {
        "name" : "IAAF Diamond League Shanghai",
        "date_start" : "2018-05-12T04:00:00.000Z",
        "date_end" : "2018-05-12T04:00:00.000Z",
        "cost" : "",
        "venue" : "",
        "city" : "Shanhai",
        "state" : "",
        "abbrev": "",
        "country" : "CHN",
        "url" : "iaaf.org",
        "lat" : 31.23039,
        "lng" : 121.473702
    }

    {
        "name" : "Jamaica International Invitational",
        "date_start" : "2018-05-19T04:00:00.000Z",
        "date_end" : "2018-05-19T04:00:00.000Z",
        "cost" : "",
        "venue" : "National Stadium Kingston Jamaica",
        "city" : "Kingston",
        "state" : "",
        "abbrev": "",
        "country" : "JAM",
        "url" : "iaaf.org",
        "lat" : 18.0724068,
        "lng" : -76.7293739
    }

    {
        "name" : "Golden Grand Prix 2018 Osaka",
        "date_start" : "2018-05-20T04:00:00.000Z",
        "date_end" : "2018-05-20T04:00:00.000Z",
        "cost" : "",
        "venue" : "Nagai Stadium",
        "city" : "Osaka",
        "state" : "",
        "abbrev": "",
        "country" : "JPN",
        "url" : "iaaf.org",
        "lat" : 34.693738,
        "lng" : 135.502165
    }

    {
        "name" : "Prefontaine Classic",
        "date_start" : "2018-05-26T04:00:00.000Z",
        "date_end" : "2018-05-26T04:00:00.000Z",
        "cost" : "",
        "venue" : "",
        "city" : "Eugene",
        "state" : "",
        "abbrev": "",
        "country" : "USA",
        "url" : "iaaf.org",
        "lat" : 44.052069,
        "lng" : -123.086754
    }

    {
        "name" : "44th Hypo-Meeting",
        "date_start" : "2018-05-27T04:00:00.000Z",
        "date_end" : "2018-05-26T04:00:00.000Z",
        "cost" : "",
        "venue" : "Mösle-Stadium",
        "city" : "Götzis",
        "state" : "",
        "abbrev": "",
        "country" : "AUT",
        "url" : "iaaf.org",
        "lat" : 47.334287,
        "lng" : 9.645246
    }

    {
        "name" : "Golden Gala Pietro Mennea",
        "date_start" : "2018-05-31T04:00:00.000Z",
        "date_end" : "2018-05-31T04:00:00.000Z",
        "cost" : "",
        "venue" : "",
        "city" : "Rome",
        "state" : "",
        "abbrev": "",
        "country" : "ITA",
        "url" : "iaaf.org",
        "lat" : 41.902784,
        "lng" : 12.496366
    }

    {
        "name" : "FBK Games",
        "date_start" : "2018-06-03T04:00:00.000Z",
        "date_end" : "2018-06-03T04:00:00.000Z",
        "cost" : "",
        "venue" : "Blankers-Koen Stadion",
        "city" : "Hengelo",
        "state" : "",
        "abbrev": "",
        "country" : "NED",
        "url" : "iaaf.org",
        "lat" : 52.257412,
        "lng" : 6.792772
    }

    {
        "name" : "Paavo Nurmi Games",
        "date_start" : "2018-06-05T04:00:00.000Z",
        "date_end" : "2018-06-05T04:00:00.000Z",
        "cost" : "",
        "venue" : "Paavo Nurmi",
        "city" : "Turku",
        "state" : "",
        "abbrev": "",
        "country" : "FIN",
        "url" : "iaaf.org",
        "lat" : 60.451813,
        "lng" : 22.26663
    }

    {
        "name" : "Oslo Bislett Games",
        "date_start" : "2018-06-07T04:00:00.000Z",
        "date_end" : "2018-06-07T04:00:00.000Z",
        "cost" : "",
        "venue" : "",
        "city" : "Oslo",
        "state" : "",
        "abbrev": "",
        "country" : "NOR",
        "url" : "iaaf.org",
        "lat" : 59.913869,
        "lng" : 10.752245
    }

    {
        "name" : "Bauhaus-Galan",
        "date_start" : "2018-06-10T04:00:00.000Z",
        "date_end" : "2018-06-10T04:00:00.000Z",
        "cost" : "",
        "venue" : "",
        "city" : "Stockholm",
        "state" : "",
        "abbrev": "",
        "country" : "SWE",
        "url" : "iaaf.org",
        "lat" : 59.329323,
        "lng" : 18.068581
    }

    {
        "name" : "57th Ostrava Golden Spike",
        "date_start" : "2018-06-13T04:00:00.000Z",
        "date_end" : "2018-06-13T04:00:00.000Z",
        "cost" : "",
        "venue" : "",
        "city" : "Ostrava",
        "state" : "",
        "abbrev": "",
        "country" : "CZE",
        "url" : "iaaf.org",
        "lat" : 49.820923,
        "lng" : 18.262524
    }

    {
        "name" : "11th TNT Express Meeting",
        "date_start" : "2018-06-17T04:00:00.000Z",
        "date_end" : "2018-06-16T04:00:00.000Z",
        "cost" : "",
        "venue" : "Mestský Stadion Sletište",
        "city" : "Kladno",
        "state" : "",
        "abbrev": "",
        "country" : "CZE",
        "url" : "iaaf.org",
        "lat" : 50.141699,
        "lng" : 14.106746
    }

    {
        "name" : "22nd Stadtwerke Ratingen Mehrkampf-Meeting",
        "date_start" : "2018-06-17T04:00:00.000Z",
        "date_end" : "2018-06-16T04:00:00.000Z",
        "cost" : "",
        "venue" : "Stadionring",
        "city" : "Ratingen",
        "state" : "",
        "abbrev": "",
        "country" : "GER",
        "url" : "iaaf.org",
        "lat" : 51.296415,
        "lng" : 6.840184
    }

    {
        "name" : "Meeting Madrid 2018",
        "date_start" : "2018-06-23T04:00:00.000Z",
        "date_end" : "2018-06-23T04:00:00.000Z",
        "cost" : "",
        "venue" : "",
        "city" : "Madrid",
        "state" : "",
        "abbrev": "",
        "country" : "ESP",
        "url" : "iaaf.org",
        "lat" : 40.416775,
        "lng" : -3.70379
    }

    {
        "name" : "Meeting de Paris",
        "date_start" : "2018-06-30T04:00:00.000Z",
        "date_end" : "2018-06-30T04:00:00.000Z",
        "cost" : "",
        "venue" : "",
        "city" : "Paris",
        "state" : "",
        "abbrev": "",
        "country" : "FRA",
        "url" : "iaaf.org",
        "lat" : 48.856614,
        "lng" : 2.352222
    }

    {
        "name" : "Pan American Combined Events",
        "date_start" : "2018-07-04T04:00:00.000Z",
        "date_end" : "2018-07-03T04:00:00.000Z",
        "cost" : "",
        "venue" : "Terry Fox AF",
        "city" : "Ottawa",
        "state" : "",
        "abbrev": "",
        "country" : "CAN",
        "url" : "iaaf.org",
        "lat" : 45.42153,
        "lng" : -75.697193
    }

    {
        "name" : "Athletissima",
        "date_start" : "2018-07-05T04:00:00.000Z",
        "date_end" : "2018-07-05T04:00:00.000Z",
        "cost" : "",
        "venue" : "Pontaise",
        "city" : "Lausanne",
        "state" : "",
        "abbrev": "",
        "country" : "SUI",
        "url" : "iaaf.org",
        "lat" : 46.519654,
        "lng" : 6.632273
    }

    {
        "name" : "Grande Premio Brasil de Atletismo",
        "date_start" : "2018-07-08T04:00:00.000Z",
        "date_end" : "2018-07-08T04:00:00.000Z",
        "cost" : "",
        "venue" : "National Trainging Centre Brazil",
        "city" : "Braganca Paulissta",
        "state" : "",
        "abbrev": "",
        "country" : "BRA",
        "url" : "iaaf.org",
        "lat" : -22.95317,
        "lng" : -46.542324
    }

    {
        "name" : "IAAF World U20 Championships Tampere 2018",
        "date_start" : "2018-07-15T04:00:00.000Z",
        "date_end" : "2018-07-10T04:00:00.000Z",
        "cost" : "",
        "venue" : "",
        "city" : "Tampere",
        "state" : "",
        "abbrev": "",
        "country" : "FIN",
        "url" : "iaaf.org",
        "lat" : 61.497752,
        "lng" : 23.760954
    }

    {
        "name" : "Meeting International Mohammed VI D'Athletisme de Rabat",
        "date_start" : "2018-07-13T04:00:00.000Z",
        "date_end" : "2018-07-13T04:00:00.000Z",
        "cost" : "",
        "venue" : "Prince Moulay Abdellah",
        "city" : "Rabat",
        "state" : "",
        "abbrev": "",
        "country" : "MAR",
        "url" : "iaaf.org",
        "lat" : 33.97159,
        "lng" : -6.849813
    }

    {
        "name" : "Herculis",
        "date_start" : "2018-07-20T04:00:00.000Z",
        "date_end" : "2018-07-20T04:00:00.000Z",
        "cost" : "",
        "venue" : "Stade Louis II",
        "city" : "Monaco",
        "state" : "",
        "abbrev": "",
        "country" : "MON",
        "url" : "iaaf.org",
        "lat" : 38.017144,
        "lng" : -122.288581
    }

    {
        "name" : "Müller Anniversary Games",
        "date_start" : "2018-07-28T04:00:00.000Z",
        "date_end" : "2018-07-27T04:00:00.000Z",
        "cost" : "",
        "venue" : "Emirates Arena",
        "city" : "Glasgow",
        "state" : "",
        "abbrev": "",
        "country" : "GBR",
        "url" : "iaaf.org",
        "lat" : 55.864237,
        "lng" : -4.251806
    }

    {
        "name" : "European Athletics Championships",
        "date_start" : "2018-08-12T04:00:00.000Z",
        "date_end" : "2018-08-07T04:00:00.000Z",
        "cost" : "",
        "venue" : "Olympiastadion",
        "city" : "Berlin",
        "state" : "",
        "abbrev": "",
        "country" : "GER",
        "url" : "iaaf.org",
        "lat" : 52.520007,
        "lng" : 13.404954
    }

    {
        "name" : "Müller Grand Prix Birmingham",
        "date_start" : "2018-08-18T04:00:00.000Z",
        "date_end" : "2018-08-18T04:00:00.000Z",
        "cost" : "",
        "venue" : "",
        "city" : "Birmingham",
        "state" : "",
        "abbrev": "",
        "country" : "GBR",
        "url" : "iaaf.org",
        "lat" : 52.486243,
        "lng" : -1.890401
    }

    {
        "name" : "Weltklasse Zürich",
        "date_start" : "2018-08-30T04:00:00.000Z",
        "date_end" : "2018-08-30T04:00:00.000Z",
        "cost" : "",
        "venue" : "",
        "city" : "Zurich",
        "state" : "",
        "abbrev": "",
        "country" : "SUI",
        "url" : "iaaf.org",
        "lat" : 47.376887,
        "lng" : 8.541694
    }

    {
        "name" : "AG Memorial Van Damme",
        "date_start" : "2018-08-31T04:00:00.000Z",
        "date_end" : "2018-08-31T04:00:00.000Z",
        "cost" : "",
        "venue" : "",
        "city" : "Van Damme",
        "state" : "",
        "abbrev": "",
        "country" : "BEL",
        "url" : "iaaf.org",
        "lat" : 39.276067,
        "lng" : -123.785671
    }

    {
        "name" : "ISTAF Berlin",
        "date_start" : "2018-09-02T04:00:00.000Z",
        "date_end" : "2018-09-02T04:00:00.000Z",
        "cost" : "",
        "venue" : "Olympiastadion",
        "city" : "Berlin",
        "state" : "",
        "abbrev": "",
        "country" : "GER",
        "url" : "iaaf.org",
        "lat" : 52.520007,
        "lng" : 13.404954
    }

    {
        "name" : "IWC Zagreb 2018",
        "date_start" : "2018-09-04T04:00:00.000Z",
        "date_end" : "2018-09-04T04:00:00.000Z",
        "cost" : "",
        "venue" : "Sports Park Ladost",
        "city" : "Zagreb",
        "state" : "",
        "abbrev": "",
        "country" : "CRO",
        "url" : "iaaf.org",
        "lat" : 45.815011,
        "lng" : 15.981919
    }

    {
        "name" : "IAAF Continental Cup Ostrava 2018",
        "date_start" : "2018-09-09T04:00:00.000Z",
        "date_end" : "2018-09-08T04:00:00.000Z",
        "cost" : "",
        "venue" : "",
        "city" : "Ostrava",
        "state" : "",
        "abbrev": "",
        "country" : "CZE",
        "url" : "iaaf.org",
        "lat" : 49.820923,
        "lng" : 18.262524
    }

    {
        "name" : "Decastar",
        "date_start" : "2018-09-16T04:00:00.000Z",
        "date_end" : "2018-09-15T04:00:00.000Z",
        "cost" : "",
        "venue" : "Stade de Thouars",
        "city" : "Talence",
        "state" : "",
        "abbrev": "",
        "country" : "FRA",
        "url" : "iaaf.org",
        "lat" : 44.791641,
        "lng" : -0.592811
    }

    {
        "name" : "3rd Youth Olympic Games",
        "date_start" : "2018-10-18T04:00:00.000Z",
        "date_end" : "2018-10-06T04:00:00.000Z",
        "cost" : "",
        "venue" : "",
        "city" : "Beunos Aires",
        "state" : "",
        "abbrev": "",
        "country" : "ARG",
        "url" : "iaaf.org",
        "lat" : -34.6036844,
        "lng" : -58.3815591
    }

    {
        "name" : "IAAF World Championships Doha 2019",
        "date_start" : "2019-10-06T04:00:00.000Z",
        "date_end" : "2019-09-28T04:00:00.000Z",
        "cost" : "",
        "venue" : "",
        "city" : "Doha",
        "state" : "",
        "abbrev": "",
        "country" : "QAT",
        "url" : "iaaf.org",
        "lat" : 25.285447,
        "lng" : 51.53104
    }
